[
  {
    "city_id": "patna",
    "city_name": "Patna",
    "state": "Bihar",
    "center_lat": 25.5941,
    "center_lon": 85.1376,
    "zoom": 12,
    "zone_count": 15,
    "avg_lst_celsius": 50.1,
    "max_lst_celsius": 54.2,
    "total_population": 1084000,
    "critical_zone_count": 8,
    "model_r_squared": 1.0,
    "rf_r_squared": 0.979,
    "top_priority_zone": "Patna City Old Town"
  },
  {
    "city_id": "hyderabad",
    "city_name": "Hyderabad",
    "state": "Telangana",
    "center_lat": 17.385,
    "center_lon": 78.4867,
    "zoom": 11,
    "zone_count": 18,
    "avg_lst_celsius": 48.2,
    "max_lst_celsius": 53.6,
    "total_population": 1247600,
    "critical_zone_count": 13,
    "model_r_squared": 1.0,
    "rf_r_squared": 0.994,
    "top_priority_zone": "Charminar Old City"
  },
  {
    "city_id": "delhi-ncr",
    "city_name": "Delhi NCR",
    "state": "Delhi / NCR",
    "center_lat": 28.6139,
    "center_lon": 77.209,
    "zoom": 10,
    "zone_count": 25,
    "avg_lst_celsius": 48.0,
    "max_lst_celsius": 55.1,
    "total_population": 1527800,
    "critical_zone_count": 13,
    "model_r_squared": 1.0,
    "rf_r_squared": 0.998,
    "top_priority_zone": "Rohini"
  },
  {
    "city_id": "kolkata",
    "city_name": "Kolkata",
    "state": "West Bengal",
    "center_lat": 22.5726,
    "center_lon": 88.3639,
    "zoom": 11,
    "zone_count": 15,
    "avg_lst_celsius": 45.6,
    "max_lst_celsius": 49.6,
    "total_population": 1282300,
    "critical_zone_count": 9,
    "model_r_squared": 1.0,
    "rf_r_squared": 0.991,
    "top_priority_zone": "Howrah"
  },
  {
    "city_id": "ranchi",
    "city_name": "Ranchi",
    "state": "Jharkhand",
    "center_lat": 23.3441,
    "center_lon": 85.3096,
    "zoom": 12,
    "zone_count": 12,
    "avg_lst_celsius": 44.5,
    "max_lst_celsius": 49.4,
    "total_population": 516200,
    "critical_zone_count": 6,
    "model_r_squared": 1.0,
    "rf_r_squared": 0.979,
    "top_priority_zone": "Ranchi Main Road"
  },
  {
    "city_id": "mumbai",
    "city_name": "Mumbai",
    "state": "Maharashtra",
    "center_lat": 19.076,
    "center_lon": 72.8777,
    "zoom": 11,
    "zone_count": 20,
    "avg_lst_celsius": 42.4,
    "max_lst_celsius": 46.8,
    "total_population": 2101200,
    "critical_zone_count": 11,
    "model_r_squared": 1.0,
    "rf_r_squared": 0.961,
    "top_priority_zone": "Kurla"
  }
]